[
{ "name": "Adam Food Centre ", "address": "2, Adam Road, S(289876) ", 				"lat": 1.324088, "long": 103.814086, "rating": 5},
{ "name": "Bedok Food Centre ", "address": "1, Bedok Road, S(469572) ", 			"lat": 1.320836, "long": 103.955416, "rating": 4},
{ "name": "Beo Crescent Market ", "address": "38A, Beo Crescent, S(169982) ", 			"lat": 1.288766, "long": 103.827528, "rating": 3},
{ "name": "Berseh Food Centre ", "address": "166, Jalan Besar, S(208877) ", 			"lat": 1.307431, "long": 103.856773, "rating": 1},
{ "name": "Bukit Timah Market ", "address": "51, Upper Bukit Timah Road, S(588215) ", 		"lat": 1.339427, "long": 103.776005, "rating": 1},
{ "name": "Chomp Chomp Food Centre ", "address": "20, Kensington Park Road, S(557269) ", 	"lat": 1.364548, "long": 103.866374, "rating": 5},
{ "name": "Dunman Food Centre ", "address": "271, Onan Road, S(424768) ", 			"lat": 1.309604, "long": 103.901709, "rating": 4},
{ "name": "East Coast Lagoon Food Village ", "address": "1220, East Coast Parkway, S(468960) ", "lat": 1.306883, "long": 103.934979, "rating": 3},
{ "name": "Geylang Serai Market ", "address": "Geylang Serai, S(402001) ", 			"lat": 1.317048, "long": 103.897371, "rating": 2},
{ "name": "Golden Mile Food Centre ", "address": "505, Beach Road, S(199583) ", 		"lat": 1.302898, "long": 103.863909, "rating": 2},
{ "name": "Holland Village Market & Food Centre ", "address": "1, Lorong Mambong, S(277700) ", 	"lat": 1.311099, "long": 103.794964, "rating": 4},
{ "name": "Kallang Estate Market ", "address": "17, Old Airport Road, S(397972) ", 		"lat": 1.307274, "long": 103.883998, "rating": 3},
{ "name": "Maxwell Food Centre ", "address": "1, Kadayanallur Street, S(069184) ", 		"lat": 1.28007, "long": 103.844911, "rating": 5},
{ "name": "Newton Food Centre ", "address": "500, Clemenceau Ave North, S(229495) ", 		"lat": 1.312041, "long": 103.839179, "rating": 1},
{ "name": "Pasir Panjang Food Centre ", "address": "121, Pasir Panjang Road, S(118543) ", 	"lat": 1.275908, "long": 103.791414, "rating": 3},
{ "name": "Sembawang Hills Food Centre ", "address": "590, Upper Thomson Road, S(574419) ", 	"lat": 1.372326, "long": 103.828973, "rating": 2},
{ "name": "Serangoon Garden Market ", "address": "49A, Serangoon Garden Way, S(555945) ", 	"lat": 1.363381, "long": 103.866835, "rating": 2},
{ "name": "Taman Jurong Market & Food Centre ", "address": "3, Yung Sheng Road, S(618499) ", 	"lat": 1.334463, "long": 103.721391, "rating": 1},
{ "name": "Tanglin Halt Market ", "address": "48A, Tanglin Halt Road, S(148813) ", 		"lat": 1.300994, "long": 103.798077, "rating": 1},
{ "name": "Tiong Bahru Market ", "address": "30, Seng Poh Road, S(168898) ", 			"lat": 1.284736, "long": 103.83241, "rating": 3},
{ "name": "Zion Riverside Food Centre ", "address": "70, Zion Road, S(247792) ", 		"lat": 1.292413, "long": 103.830988, "rating": 4},
{ "name": "ABC Brickworks Market & Food Centre ", "address": "Blk 6, Jalan Bukit Merah, S(150006) ", 	"lat": 1.287051, "long": 103.807976, "rating": 1},
{ "name": "Albert Centre Market & Food Centre ", "address": "Blk 270, Queen Street, S(180270) ", 	"lat": 1.301057, "long": 103.854116, "rating": 3},
{ "name": "Alexandra Village Food Centre ", "address": "Blk 120, Bukit Merah Lane 1, S(150120) ", 	"lat": 1.286343, "long": 103.804526, "rating": 4},
{ "name": "Blk 117 Aljunied Ave 2 ", "address": "Blk 117, Aljunied Ave 2, S(380117) ", 			"lat": 1.320614, "long": 103.886992, "rating": 2},
{ "name": "Blk 226D Ang Mo Kio Ave 1 ", "address": "Blk 226D, Ang Mo Kio Ave 1, S(564226) ", 		"lat": 1.366795, "long": 103.839176, "rating": 2},
{ "name": "Blk 341 Ang Mo Kio Ave 1 ", "address": "Blk 341, Ang Mo Kio Ave 1, S(560341) ", 		"lat": 1.364171, "long": 103.848065, "rating": 3},
{ "name": "Blk 628 Ang Mo Kio Ave 4 ", "address": "Blk 628, Ang Mo Kio Ave 4, S(560628) ", 		"lat": 1.380977, "long": 103.840658, "rating": 1},
{ "name": "Blk 724 Ang Mo Kio Ave 6 ", "address": "Blk 724, Ang Mo Kio Ave 6, S(560724) ", 		"lat": 1.372185, "long": 103.846562, "rating": 2},
{ "name": "Blk 409 Ang Mo Kio Ave 10 ", "address": "Blk 409, Ang Mo Kio Ave 10, S(560409) ", 		"lat": 1.363019, "long": 103.855294, "rating": 4},
{ "name": "Blk 453A Ang Mo Kio Ave 10 ", "address": "Blk 453A, Ang Mo Kio Ave 10, S(561453) ", 		"lat": 1.367925, "long": 103.856773, "rating": 1},
{ "name": "Blk 527 Ang Mo Kio Ave 10 ", "address": "Blk 527, Ang Mo Kio Ave 10, S(560527) ", 		"lat": 1.372761, "long": 103.854306, "rating": 2},
{ "name": "Blk 226H Ang Mo Kio Street 22 ", "address": "Blk 226H, Ang Mo Kio Street 22, S(568226) ", 	"lat": 1.367205, "long": 103.839997, "rating": 1},
{ "name": "Blk 216 Bedok North Street 1 ", "address": "Blk 216, Bedok North Street 1, S(460216) ", 	"lat": 1.327049, "long": 103.933326, "rating": 2},
{ "name": "Blk 511 Bedok North Street 3 ", "address": "Blk 511, Bedok North Street 3, S(460511) ", 	"lat": 1.333261, "long": 103.930609, "rating": 2},
{ "name": "Blk 538 Bedok North Street 3 ", "address": "Blk 538, Bedok North Street 3, S(460538) ", 	"lat": 1.331798, "long": 103.924861, "rating": 2},
{ "name": "Blk 85 Bedok North Street 4 ", "address": "Blk 85, Bedok North Street 4, S(460085) ", 	"lat": 1.332004, "long": 103.938742, "rating": 3},
{ "name": "Blk 630 Bedok Reservoir Road ", "address": "Blk 630, Bedok Reservoir Road, S(470630) ", 	"lat": 1.332925, "long": 103.91412, "rating": 1},
{ "name": "Blk 16 Bedok South Road ", "address": "Blk 16, Bedok South Road, S(460016) ", 		"lat": 1.320549, "long": 103.935555, "rating": 2},
{ "name": "Blk 29 Bendemeer Road ", "address": "Blk 29, Bendemeer Road, S(330029) ", 			"lat": 1.319142, "long": 103.863322, "rating": 4},
{ "name": "Blks 221A/B Boon Lay Place ", "address": "Blks 221A/B, Boon Lay Place, S(641221/642221) ", 	"lat": 1.345686, "long": 103.713082, "rating": 3},
{ "name": "Blk 163 Bukit Merah Central ", "address": "Blk 163, Bukit Merah Central, S(150163) ", 	"lat": 1.284181, "long": 103.816992, "rating": 3},
{ "name": "Blk 115 Bukit Merah View ", "address": "Blk 115, Bukit Merah View, S(151115) ", "lat": 1.285527, "long": 103.822038, "rating": 4},
{ "name": "Blks 2 & 3 Changi Village Road ", "address": "Blks 2/3, Changi Village Road, S(500002/500003) ", "lat": 1.385438, "long": 103.987306, "rating": 3},
{ "name": "Chong Pang Market & Food Centre ", "address": "Blks 104/105, Yishun Ring Road, S(760104/760105) ", "lat": 1.431954, "long": 103.828133, "rating": 2},
{ "name": "Blk 353 Clementi Ave 2 ", "address": "Blk 353, Clementi Ave 2, S(120353) ", "lat": 1.314399, "long": 103.770821, "rating": 4},
{ "name": "Blk 448 Clementi Ave 3 ", "address": "Blk 448, Clementi Ave 3, S(120448) ", "lat": 1.313218, "long": 103.764506, "rating": 11},
{ "name": "Blk 726 Clementi West Street 2 ", "address": "Blk 726, Clementi West Street 2, S(120726) ", "lat": 1.303831, "long": 103.764132, "rating": 5},
{ "name": "Blk 7 Empress Road ", "address": "Blk 7, Empress Road, S(260007) ", "lat": 1.316456, "long": 103.805795, "rating": 3},
{ "name": "Blk 4A Eunos Crescent ", "address": "Blk 4A, Eunos Crescent, S(402004) ", "lat": 1.320065, "long": 103.903711, "rating": 4},
{ "name": "Blk 69 Geylang Bahru ", "address": "Blk 69, Geylang Bahru, S(330069) ", "lat": 1.321461, "long": 103.870115, "rating": 3},
{ "name": "Blk 20 Ghim Moh Road ", "address": "Blk 20, Ghim Moh Road, S(270020) ", "lat": 1.311118, "long": 103.788465, "rating": 4},
{ "name": "Blks 22A/B Havelock Road ", "address": "Blks 22A/B, Havelock Road, S(161022/162022) ", "lat": 1.287739, "long": 103.829284, "rating": 2},
{ "name": "Blk 44 Holland Drive ", "address": "Blk 44, Holland Drive, S(270044) ", "lat": 1.308222, "long": 103.792974, "rating": 2},
{ "name": "Hong Lim Market & Food Centre ", "address": "Blk 531A, Upper Cross Street, S(051531) ", "lat": 1.285373, "long": 103.846453, "rating": 3},
{ "name": "Blk 105 Hougang Ave 1 ", "address": "Blk 105, Hougang Ave 1, S(530105) ", "lat": 1.354063, "long": 103.890125, "rating": 4},
{ "name": "Blk 4A Jalan Batu ", "address": "Blk 4A, Jalan Batu, S(432004) ", "lat": 1.302428, "long": 103.883923, "rating": 3},
{ "name": "Blk 112 Jalan Bukit Merah ", "address": "Blk 112, Jalan Bukit Merah, S(160112) ", "lat": 1.280003, "long": 103.826004, "rating": 4},
{ "name": "Blk 1 Jalan Kukoh ", "address": "Blk 1, Jalan Kukoh, S(161001) ", "lat": 1.28832, "long": 103.840004, "rating": 3},
{ "name": "Blk 347 Jurong East Ave 1 ", "address": "Blk 347, Jurong East Ave 1, S(600347) ", "lat": 1.345236, "long": 103.731466, "rating": 3},
{ "name": "Blk 254 Jurong East Street 24 ", "address": "Blk 254, Jurong East Street 24, S(600254) ", "lat": 1.343434, "long": 103.73778, "rating": 2},
{ "name": "Blk 505 Jurong West Street 52 ", "address": "Blk 505, Jurong West Street 52, S(640505) ", "lat": 1.349866, "long": 103.718165, "rating": 1},
{ "name": "Kovan Market & Food Centre ", "address": "Blk 209, Hougang Street 21, S(530209) ", "lat": 1.359092, "long": 103.886095, "rating": 1},
{ "name": "Blk 84 Marine Parade Central ", "address": "Blk 84, Marine Parade Central, S(440084) ", "lat": 1.302262, "long": 103.906564, "rating": 3},
{ "name": "Blk 50A Marine Terrace ", "address": "Blk 50A, Marine Terrace, S(441050) ", "lat": 1.30572, "long": 103.916019, "rating": 2},
{ "name": "Blk 159 Mei Chin Road ", "address": "Blk 159, Mei Chin Road, S(140159) ", "lat": 1.293191, "long": 103.802438, "rating": 3},
{ "name": "Blk 58 New Upper Changi Road ", "address": "Blk 58, New Upper Changi Road, S(461058) ", "lat": 1.324313, "long": 103.941176, "rating": 5},
{ "name": "Blk 208B New Upper Changi Road # ", "address": "Blk 208B, New Upper Changi Road, S(462208) ", "lat": 1.325679, "long": 103.930951, "rating": 2},
{ "name": "Blk 51 Old Airport Road ", "address": "Blk 51, Old Airport Road, S(390051) ", "lat": 1.308277, "long": 103.885812, "rating": 3},
{ "name": "People's Park Food Centre ", "address": "Blk 32, New Market Road, S(050032) ", "lat": 1.284987, "long": 103.842602, "rating": 2},
{ "name": "Blk 79 Redhill Lane ", "address": "Blk 79, Redhill Lane, S(150079) ", "lat": 1.287827, "long": 103.818104, "rating": 3},
{ "name": "Blk 85 Redhill Lane ", "address": "Blk 85, Redhill Lane, S(150085) ", "lat": 1.287351, "long": 103.818363, "rating": 2},
{ "name": "Blk 320 Shunfu Road ", "address": "Blk 320, Shunfu Road, S(570320) ", "lat": 1.351778, "long": 103.836938, "rating": 2},
{ "name": "Blk 49 Sims Place ", "address": "Blk 49, Sims Place, S(380049) ", "lat": 1.316995, "long": 103.879252, "rating": 4},
{ "name": "Blk 137 Tampines Street 11 ", "address": "Blk 137, Tampines Street 11, S(521137) ", "lat": 1.345531, "long": 103.94471, "rating": 4},
{ "name": "Blk 6 Tanjong Pagar Plaza ", "address": "Blk 6, Tanjong Pagar Plaza, S(081006) ", "lat": 1.276786, "long": 103.842698, "rating": 2},
{ "name": "Blk 37A Teban Gardens Road ", "address": "Blk 37A, Teban Gardens Road, S(601037) ", "lat": 1.32087, "long": 103.742765, "rating": 3},
{ "name": "Blk 11 Telok Blangah Crescent ", "address": "Blk 11, Telok Blangah Crescent, S(090011) ", "lat": 1.277431, "long": 103.818672, "rating": 2},
{ "name": "Blk 79 Telok Blangah Drive ", "address": "Blk 79, Telok Blangah Drive, S(100079) ", "lat": 1.273301, "long": 103.807598, "rating": 3},
{ "name": "Blk 82 Telok Blangah Drive ", "address": "Blk 82, Telok Blangah Drive, S(100082) ", "lat": 1.273787, "long": 103.807777, "rating": 3},
{ "name": "Blk 36 Telok Blangah Rise ", "address": "Blk 36, Telok Blangah Rise, S(090036) ", "lat": 1.272617, "long": 103.821985, "rating": 3},
{ "name": "Blk 127 Toa Payoh Lorong 1 ", "address": "Blk 127, Lorong 1 Toa Payoh, S(310127) ", "lat": 1.338084, "long": 103.844724, "rating": 4},
{ "name": "Blk 74 Toa Payoh Lorong 4 ", "address": "Blk 74, Lorong 4 Toa Payoh, S(310074) ", "lat": 1.334536, "long": 103.852013, "rating": 3},
{ "name": "Blk 93 Toa Payoh Lorong 4 ", "address": "Blk 93, Lorong 4 Toa Payoh, S(310093) ", "lat": 1.338254, "long": 103.850025, "rating": 2},
{ "name": "Blk 75 Toa Payoh Lorong 5 ", "address": "Blk 75, Lorong 5 Toa Payoh, S(310075) ", "lat": 1.336115, "long": 103.853005, "rating": 4},
{ "name": "Blk 22 Toa Payoh Lorong 7 ", "address": "Blk 22, Lorong 7 Toa Payoh, S(310022) ", "lat": 1.335231, "long": 103.857027, "rating": 5},
{ "name": "Blk 210 Toa Payoh Lorong 8 ", "address": "Blk 210, Lorong 8 Toa Payoh, S(310210) ", "lat": 1.340213, "long": 103.854422, "rating": 3},
{ "name": "Blk 17 Upper Boon Keng Road ", "address": "Blk 17, Upper Boon Keng Road, S(380017) ", "lat": 1.315038, "long": 103.871636, "rating": 2},
{ "name": "Blk 502 West Coast Drive ", "address": "Blk 502, West Coast Drive, S(120502) ", "lat": 1.311718, "long": 103.759029, "rating": 3},
{ "name": "Blk 503 West Coast Drive ", "address": "Blk 503, West Coast Drive, S(120503) ", "lat": 1.311834, "long": 103.759709, "rating": 2},
{ "name": "Blk 90 Whampoa Drive ", "address": "Blk 90, Whampoa Drive, S(320090) ", "lat": 1.32294, "long": 103.855159, "rating": 4}
]